{
"type": "FeatureCollection",
"features": [
{"type": "Feature", "id": 1, "properties": {"city": "Atascadero", "other_reso": "0", "objectid_1": 1, "name": "Morro Toro FS", "zip": "93422", "lon": -120.751231847, "remark": "", "class": "SCHED_A", "county": "SLO", "lat": 35.4535486673, "phone_num": "805-466-5089", "staffing": "V", "fid": 0, "address": "15325 Hwy 41", "owner": "COUNTY", "funding": "A", "cad_name": "SLU Morro-Toro Stn", "type": "FS", "aka": "#14", "unit": "SLU"}, "geometry": { "type": "Point", "coordinates": [-120.751244564, 35.453553518]  } },
{"type": "Feature", "id": 2, "properties": {"city": "Los Osos", "other_reso": "Sm Rescue", "objectid_1": 2, "name": "South Bay FS", "zip": "93402", "lon": -120.833841323, "remark": "", "class": "SCHED_A", "county": "SLO", "lat": 35.309413467, "phone_num": "805-528-1053", "staffing": "P", "fid": 1, "address": "2315 Bayview Heights Drive", "owner": "COUNTY", "funding": "A", "cad_name": "SLU South Bay Stn", "type": "FS", "aka": "#15", "unit": "SLU"}, "geometry": { "type": "Point", "coordinates": [-120.83385404, 35.3094182987]  } },
{"type": "Feature", "id": 3, "properties": {"city": "San Luis Obispo", "other_reso": "ICS Type 2 Rescue", "objectid_1": 3, "name": "Airport FS", "zip": "93401", "lon": -120.636333604, "remark": "", "class": "SCHED_A", "county": "SLO", "lat": 35.2381038857, "phone_num": "805-544-5105", "staffing": "P", "fid": 2, "address": "4651 Broad Street", "owner": "COUNTY", "funding": "A", "cad_name": "SLU Airport Stn", "type": "FS", "aka": "#21", "unit": "SLU"}, "geometry": { "type": "Point", "coordinates": [-120.636346283, 35.2381087228]  } },
{"type": "Feature", "id": 4, "properties": {"city": "Arroyo Grande", "other_reso": "0", "objectid_1": 4, "name": "Mesa FS", "zip": "93405", "lon": -120.587428287, "remark": "", "class": "SCHED_A", "county": "SLO", "lat": 35.0468495698, "phone_num": "805-473-7171", "staffing": "P", "fid": 3, "address": "2391 Willow Road", "owner": "COUNTY", "funding": "A", "cad_name": "SLU Mesa Stn", "type": "FS", "aka": "#22", "unit": "SLU"}, "geometry": { "type": "Point", "coordinates": [-120.58744094, 35.0468543912]  } },
{"type": "Feature", "id": 5, "properties": {"city": "Paso Robles", "other_reso": "0", "objectid_1": 5, "name": "Oak Shores FS", "zip": "93446", "lon": -120.984282557, "remark": "", "class": "SCHED_A", "county": "SLO", "lat": 35.756706686, "phone_num": "805-427-9548", "staffing": "V", "fid": 4, "address": "2569 Shoreline Drive", "owner": "COUNTY", "funding": "A", "cad_name": "SLU Oak Shores Stn", "type": "FS", "aka": "#34", "unit": "SLU"}, "geometry": { "type": "Point", "coordinates": [-120.984295339, 35.7567115507]  } },
{"type": "Feature", "id": 6, "properties": {"city": "Paso Robles", "other_reso": "Sm Rescue", "objectid_1": 6, "name": "Heritage Ranch FS", "zip": "93446", "lon": -120.885694579, "remark": "", "class": "SCHED_A", "county": "SLO", "lat": 35.7219763345, "phone_num": "805-227-6553", "staffing": "P", "fid": 5, "address": "#3 Village Rd, Heritage Rnch 1", "owner": "COUNTY", "funding": "A", "cad_name": "SLU Heritage Ranch Stn", "type": "FS", "aka": "#33", "unit": "SLU"}, "geometry": { "type": "Point", "coordinates": [-120.885707342, 35.7219812023]  } },
{"type": "Feature", "id": 7, "properties": {"city": "Paso Robles", "other_reso": "0", "objectid_1": 7, "name": "Meridian FS", "zip": "93446", "lon": -120.578517157, "remark": "", "class": "SCHED_A", "county": "SLO", "lat": 35.6605841793, "phone_num": "805-237-3155", "staffing": "P", "fid": 6, "address": "4050 Branch", "owner": "COUNTY", "funding": "A", "cad_name": "SLU Meridian Stn", "type": "FS", "aka": "#36", "unit": "SLU"}, "geometry": { "type": "Point", "coordinates": [-120.578529867, 35.6605890609]  } },
{"type": "Feature", "id": 8, "properties": {"city": "Creston", "other_reso": "0", "objectid_1": 8, "name": "Creston FS", "zip": "93432", "lon": -120.521403, "remark": "", "class": "SCHED_A", "county": "SLO", "lat": 35.526373, "phone_num": "805-238-4343", "staffing": "P", "fid": 7, "address": "6055 Webster Rd", "owner": "COUNTY", "funding": "A", "cad_name": "SLU Creston Stn", "type": "FS", "aka": "#43", "unit": "SLU"}, "geometry": { "type": "Point", "coordinates": [-120.521418884, 35.5263679749]  } },
{"type": "Feature", "id": 9, "properties": {"city": "California Valley", "other_reso": "Sm Rescue", "objectid_1": 9, "name": "Carrizo Plain FS", "zip": "93453", "lon": -120.003495395, "remark": "", "class": "SCHED_A", "county": "SLO", "lat": 35.3209542917, "phone_num": "805-475-2322", "staffing": "P", "fid": 8, "address": "13080 Soda Lake Rd, POB 3099", "owner": "COUNTY", "funding": "A", "cad_name": "SLU Carrizo Plain Stn", "type": "FS", "aka": "#42", "unit": "SLU"}, "geometry": { "type": "Point", "coordinates": [-120.003507981, 35.3209591763]  } },
{"type": "Feature", "id": 10, "properties": {"city": "Pismo Beach", "other_reso": "0", "objectid_1": 10, "name": "Shell Beach FS", "zip": "93449", "lon": -120.684396674, "remark": "", "class": "SCHED_A", "county": "SLO", "lat": 35.1622210128, "phone_num": "805-773-7051", "staffing": "P", "fid": 9, "address": "2555 Shell Beach Road", "owner": "CITY", "funding": "A", "cad_name": "SLU Shell Beach Stn", "type": "FS", "aka": "#63", "unit": "SLU"}, "geometry": { "type": "Point", "coordinates": [-120.684409354, 35.1622258395]  } },
{"type": "Feature", "id": 11, "properties": {"city": "San Luis Obispo", "other_reso": "BreathingSupp", "objectid_1": 11, "name": "Avila Valley FS", "zip": "93405", "lon": -120.718626286, "remark": "", "class": "SCHED_A", "county": "SLO", "lat": 35.1937497262, "phone_num": "805-595-2115", "staffing": "P", "fid": 10, "address": "1551 Sparrow Street", "owner": "COUNTY", "funding": "A", "cad_name": "SLU Avila Valley Stn", "type": "FS", "aka": "#62", "unit": "SLU"}, "geometry": { "type": "Point", "coordinates": [-120.718638973, 35.1937545539]  } },
{"type": "Feature", "id": 12, "properties": {"city": "Pismo Beach", "other_reso": "Sm Rescue", "objectid_1": 12, "name": "Pismo Beach FS", "zip": "93449", "lon": -120.640374345, "remark": "", "class": "SCHED_A", "county": "SLO", "lat": 35.1440975382, "phone_num": "805-773-7050", "staffing": "P", "fid": 11, "address": "1000 Bello Street", "owner": "CITY", "funding": "A", "cad_name": "SLU Pismo Stn", "type": "FS", "aka": "#64", "unit": "SLU"}, "geometry": { "type": "Point", "coordinates": [-120.640387016, 35.1441023659]  } },
{"type": "Feature", "id": 13, "properties": {"city": "Santa Margarita", "other_reso": "0", "objectid_1": 13, "name": "Parkhill FS", "zip": "93453", "lon": -120.545853886, "remark": "", "class": "SCHED_A", "county": "SLO", "lat": 35.4076463483, "phone_num": "805-438-5426", "staffing": "P", "fid": 12, "address": "6140 Parkhill Rd", "owner": "COUNTY", "funding": "A", "cad_name": "SLU Parkhill Stn", "type": "FS", "aka": "#40", "unit": "SLU"}, "geometry": { "type": "Point", "coordinates": [-120.545866566, 35.4076512075]  } },
{"type": "Feature", "id": 14, "properties": {"city": "Shandon", "other_reso": "0", "objectid_1": 14, "name": "Shandon FS", "zip": "93461", "lon": -120.381226808, "remark": "", "class": "SCHED_A", "county": "SLO", "lat": 35.6562615397, "phone_num": "805-238-4957", "staffing": "P", "fid": 13, "address": "501 W. Center St", "owner": "COUNTY", "funding": "A", "cad_name": "SLU Shandon Stn", "type": "FS", "aka": "#31", "unit": "SLU"}, "geometry": { "type": "Point", "coordinates": [-120.381239486, 35.6562664335]  } },
{"type": "Feature", "id": 15, "properties": {"city": "Paso Robles", "other_reso": "Sm Rescue, Hazmat", "objectid_1": 15, "name": "Paso Robles FS", "zip": "93446", "lon": -120.695481908, "remark": "", "class": "SCHED_A", "county": "SLO", "lat": 35.5813805835, "phone_num": "805-227-6553", "staffing": "P", "fid": 14, "address": "2510 Ramada Dr", "owner": "COUNTY", "funding": "A", "cad_name": "SLU Paso Robles Stn", "type": "FS", "aka": "#30", "unit": "SLU"}, "geometry": { "type": "Point", "coordinates": [-120.695494629, 35.58138545]  } },
{"type": "Feature", "id": 16, "properties": {"city": "Cambria", "other_reso": "ICS Type 2 Rescue", "objectid_1": 16, "name": "Cambria FS", "zip": "93428", "lon": -121.104355134, "remark": "", "class": "SCHED_A", "county": "SLO", "lat": 35.5728682666, "phone_num": "805-927-4262", "staffing": "P", "fid": 15, "address": "6126 Coventry Ln", "owner": "COUNTY", "funding": "A", "cad_name": "SLU Cambria STN", "type": "FS", "aka": "#10", "unit": "SLU"}, "geometry": { "type": "Point", "coordinates": [-121.104367917, 35.5728731063]  } },
{"type": "Feature", "id": 17, "properties": {"city": "San Luis Obispo", "other_reso": "0", "objectid_1": 17, "name": "SLU Headquarters", "zip": "93405", "lon": -120.678458424, "remark": "", "class": "SCHED_A", "county": "SLO", "lat": 35.3017203683, "phone_num": "805-543-4244", "staffing": "V", "fid": 16, "address": "635 N. Santa Rosa St", "owner": "COUNTY", "funding": "A", "cad_name": "SLU Admin", "type": "FS", "aka": "#12", "unit": "SLU"}, "geometry": { "type": "Point", "coordinates": [-120.678471116, 35.3017252089]  } },
{"type": "Feature", "id": 18, "properties": {"city": "Nipomo", "other_reso": "Sm Rescue", "objectid_1": 18, "name": "Nipomo FS", "zip": "93444", "lon": -120.486887429, "remark": "", "class": "SCHED_A", "county": "SLO", "lat": 35.0406924064, "phone_num": "805-929-3911", "staffing": "P", "fid": 17, "address": "450 Pioneer Av", "owner": "COUNTY", "funding": "A", "cad_name": "SLU Nipomo Stn", "type": "FS", "aka": "#20", "unit": "SLU"}, "geometry": { "type": "Point", "coordinates": [-120.486900066, 35.0406972334]  } } 
]}
