{
"type": "FeatureCollection",
                                                                                
"features": [
{ "type": "Feature", "properties": { "OBJECTID": 1, "NAME": "Las Tablas FS", "OWNER": "STATE", "UNIT": "SLU", "ADDRESS": "275 Cypress Mt. Drive", "CITY": "Paso Robles", "ZIP": "93446", "COUNTY": "SLO", "Eng_Type_3": 1, "Doz_Type_2": 0, "Doz_Type_3": 0, "CAD_Name": "SLU Las Tablas FS", "LAT": 35.656882515200003, "LON": -120.923289991, "Funding": "B", "Phone_Num": "805-238-4592", "AKA": "#35", "TYPE": "FS", "Eng_Type_4": 0, "Notes": null, "CLASS": "FS" }, "geometry": { "type": "Point", "coordinates": [ -120.92330275381154, 35.656887374407496,  ] } }
,
{ "type": "Feature", "properties": { "OBJECTID": 2, "NAME": "Shandon FS", "OWNER": "STATE", "UNIT": "SLU", "ADDRESS": "501 W. Centre St.", "CITY": "Shandon", "ZIP": "93461", "COUNTY": "SLO", "Eng_Type_3": 1, "Doz_Type_2": 0, "Doz_Type_3": 0, "CAD_Name": "SLU Shandon FS", "LAT": 35.656261539699997, "LON": -120.38122680799999, "Funding": "B", "Phone_Num": "805-238-4957", "AKA": "#31", "TYPE": "FS", "Eng_Type_4": 0, "Notes": null, "CLASS": "FS" }, "geometry": { "type": "Point", "coordinates": [ -120.38123948557127, 35.656266433456629,  ] } }
,
{ "type": "Feature", "properties": { "OBJECTID": 3, "NAME": "Paso Robles FS", "OWNER": "STATE", "UNIT": "SLU", "ADDRESS": "2510 Ramada Dr.", "CITY": "Paso Robles", "ZIP": "93446", "COUNTY": "SLO", "Eng_Type_3": 2, "Doz_Type_2": 0, "Doz_Type_3": 0, "CAD_Name": "SLU Paso Robles FS", "LAT": 35.5813805835, "LON": -120.695481908, "Funding": "B", "Phone_Num": "805-238-2211", "AKA": "#30", "TYPE": "FS", "Eng_Type_4": 0, "Notes": null, "CLASS": "FS" }, "geometry": { "type": "Point", "coordinates": [ -120.69549462863486, 35.581385450027675,  ] } }
,
{ "type": "Feature", "properties": { "OBJECTID": 4, "NAME": "Cambria FS", "OWNER": "STATE", "UNIT": "SLU", "ADDRESS": "6126 Coventry Lane", "CITY": "Cambria", "ZIP": "93428", "COUNTY": "SLO", "Eng_Type_3": 1, "Doz_Type_2": 0, "Doz_Type_3": 0, "CAD_Name": "SLU Cambria FS", "LAT": 35.572868266599997, "LON": -121.104355134, "Funding": "B", "Phone_Num": "805-927-4262", "AKA": "#10", "TYPE": "FS", "Eng_Type_4": 0, "Notes": null, "CLASS": "FS" }, "geometry": { "type": "Point", "coordinates": [ -121.1043679174893, 35.572873106283708,  ] } }
,
{ "type": "Feature", "properties": { "OBJECTID": 5, "NAME": "Cayucos FS", "OWNER": "STATE", "UNIT": "SLU", "ADDRESS": "Hwy. 1 @ Chaney", "CITY": "Cayucos", "ZIP": "93430", "COUNTY": "SLO", "Eng_Type_3": 1, "Doz_Type_2": 0, "Doz_Type_3": 0, "CAD_Name": "SLU Cayucos FS", "LAT": 35.421176813199999, "LON": -120.876293085, "Funding": "B", "Phone_Num": "805-995-1133", "AKA": "#11", "TYPE": "FS", "Eng_Type_4": 0, "Notes": null, "CLASS": "FS" }, "geometry": { "type": "Point", "coordinates": [ -120.87630581865531, 35.421181652902845,  ] } }
,
{ "type": "Feature", "properties": { "OBJECTID": 6, "NAME": "Parkhill FS", "OWNER": "STATE", "UNIT": "SLU", "ADDRESS": "6140 Parkhill Road", "CITY": "Santa Margarita", "ZIP": "93453", "COUNTY": "SLO", "Eng_Type_3": 2, "Doz_Type_2": 1, "Doz_Type_3": 0, "CAD_Name": "SLU Parkhill FS", "LAT": 35.407646348299998, "LON": -120.545853886, "Funding": "B", "Phone_Num": "805-438-5426", "AKA": "#40", "TYPE": "FS", "Eng_Type_4": 0, "Notes": null, "CLASS": "FS" }, "geometry": { "type": "Point", "coordinates": [ -120.54586656628669, 35.407651207518121,  ] } }
,
{ "type": "Feature", "properties": { "OBJECTID": 7, "NAME": "La Panza FS", "OWNER": "STATE", "UNIT": "SLU", "ADDRESS": "5398 Pozo Rd, Star Rt, Box 75A", "CITY": "Santa Margarita", "ZIP": "93453", "COUNTY": "SLO", "Eng_Type_3": 1, "Doz_Type_2": 0, "Doz_Type_3": 0, "CAD_Name": "SLU La Panza FS", "LAT": 35.380231923700002, "LON": -120.188283954, "Funding": "B", "Phone_Num": "805-438-5460", "AKA": "#41", "TYPE": "FS", "Eng_Type_4": 0, "Notes": null, "CLASS": "FS" }, "geometry": { "type": "Point", "coordinates": [ -120.18829657502434, 35.380236802663582,  ] } }
,
{ "type": "Feature", "properties": { "OBJECTID": 8, "NAME": "San Luis Obispo FS", "OWNER": "STATE", "UNIT": "SLU", "ADDRESS": "635 N. Santa Rosa", "CITY": "San Luis Obispo", "ZIP": "93405", "COUNTY": "SLO", "Eng_Type_3": 1, "Doz_Type_2": 1, "Doz_Type_3": 0, "CAD_Name": "SLU San Luis Obispo FS", "LAT": 35.301720368300003, "LON": -120.678458424, "Funding": "B", "Phone_Num": "805-543-4244", "AKA": "#12", "TYPE": "FS", "Eng_Type_4": 0, "Notes": null, "CLASS": "FS" }, "geometry": { "type": "Point", "coordinates": [ -120.6784711156108, 35.301725208943239,  ] } }
,
{ "type": "Feature", "properties": { "OBJECTID": 9, "NAME": "Nipomo FS", "OWNER": "STATE", "UNIT": "SLU", "ADDRESS": "450 Pioneer St.", "CITY": "Nipomo", "ZIP": "93444", "COUNTY": "SLO", "Eng_Type_3": 2, "Doz_Type_2": 0, "Doz_Type_3": 0, "CAD_Name": "SLU Nipomo FS", "LAT": 35.040692406399998, "LON": -120.48688742900001, "Funding": "B", "Phone_Num": "805-929-3911", "AKA": "#20", "TYPE": "FS", "Eng_Type_4": 0, "Notes": null, "CLASS": "FS" }, "geometry": { "type": "Point", "coordinates": [ -120.48690006617146, 35.040697233387476,  ] } }
,
{ "type": "Feature", "properties": { "OBJECTID": 10, "NAME": "Shell Beach FS", "OWNER": "COUNTY", "UNIT": "SLU", "ADDRESS": "2555 Shell Beach Rd", "CITY": "Pismo Beach", "ZIP": "93449", "COUNTY": "SLO", "Eng_Type_3": 1, "Doz_Type_2": 0, "Doz_Type_3": 0, "CAD_Name": "SLU Shell Beach FS", "LAT": 35.162221012800003, "LON": -120.684396674, "Funding": "B", "Phone_Num": "805-773-7031", "AKA": "#63", "TYPE": "FS", "Eng_Type_4": 0, "Notes": null, "CLASS": "FS" }, "geometry": { "type": "Point", "coordinates": [ -120.68440935365723, 35.162225839517504,  ] } }

]
}
